City_ID,City_ID,City,Country,Date,Lat,Lng,Max Temp,Humidity,Cloudiness,Wind Speed,Decription
0,0,Shenjiamen,CN,2022-03-12 17:32:24,29.9576,122.298,57.52,94,45,20.27,scattered clouds
1,1,Santo Domingo,DO,2022-03-12 17:27:53,18.5001,-69.9886,85.68,68,75,4.0,broken clouds
2,2,Saint Boswells,GB,2022-03-12 17:32:24,55.573,-2.6441,47.16,83,73,5.59,broken clouds
3,3,Honiara,SB,2022-03-12 17:30:15,-9.4333,159.95,76.01,91,100,0.81,overcast clouds
4,4,Tuktoyaktuk,CA,2022-03-12 17:32:25,69.4541,-133.0374,-14.8,76,75,12.66,light snow
5,5,Rikitea,PF,2022-03-12 17:32:25,-23.1203,-134.9692,78.69,73,74,10.07,broken clouds
6,6,Visby,SE,2022-03-12 17:28:47,57.6409,18.296,37.62,48,19,4.61,few clouds
7,7,Ushuaia,AR,2022-03-12 17:32:25,-54.8,-68.3,49.66,62,75,5.75,broken clouds
8,8,Albany,US,2022-03-12 17:30:14,42.6001,-73.9662,27.43,92,100,5.99,snow
9,9,Cariati,IT,2022-03-12 17:32:26,39.4922,16.9594,43.99,59,44,0.98,scattered clouds
10,10,Bathsheba,BB,2022-03-12 17:29:59,13.2167,-59.5167,84.81,58,20,29.93,few clouds
11,11,Qui Nhon,VN,2022-03-12 17:32:26,13.7667,109.2333,70.74,85,56,7.45,broken clouds
12,12,Varnavino,RU,2022-03-12 17:32:27,57.4035,45.0916,15.64,99,100,3.11,overcast clouds
13,13,Mataura,NZ,2022-03-12 17:32:27,-46.1927,168.8643,50.49,97,15,2.21,few clouds
14,14,Healesville,AU,2022-03-12 17:32:27,-37.65,145.5167,59.52,99,3,2.48,clear sky
15,15,Ribeira Grande,PT,2022-03-12 17:32:28,38.5167,-28.7,63.0,55,20,5.75,few clouds
16,16,Hovd,MN,2022-03-12 17:32:28,48.0056,91.6419,19.74,64,26,2.24,scattered clouds
17,17,Payo,ID,2022-03-12 17:32:28,-3.7508,103.6372,73.69,98,100,1.36,light rain
18,18,Vaini,TO,2022-03-12 17:32:29,-21.2,-175.2,75.36,100,20,2.3,few clouds
19,19,Tasiilaq,GL,2022-03-12 17:32:29,65.6145,-37.6368,32.16,88,99,22.01,overcast clouds
20,20,Gizo,SB,2022-03-12 17:32:29,-8.103,156.8419,81.81,71,88,5.48,overcast clouds
21,21,Kodiak,US,2022-03-12 17:32:30,57.79,-152.4072,36.91,93,100,3.44,overcast clouds
22,22,Busselton,AU,2022-03-12 17:32:30,-33.65,115.3333,68.68,81,93,4.94,overcast clouds
23,23,Gobabis,,2022-03-12 17:32:30,-22.45,18.9667,78.66,33,13,8.79,few clouds
24,24,Saint George,US,2022-03-12 17:30:44,37.1041,-113.5841,52.63,27,0,3.44,clear sky
25,25,Samus,RU,2022-03-12 17:32:31,56.7475,84.6992,-9.27,100,92,2.93,overcast clouds
26,26,Kavieng,PG,2022-03-12 17:32:31,-2.5744,150.7967,81.68,70,82,7.96,broken clouds
27,27,Beringovskiy,RU,2022-03-12 17:32:32,63.05,179.3167,0.07,85,4,10.67,clear sky
28,28,Xichang,CN,2022-03-12 17:32:32,27.8964,102.2634,57.15,61,97,3.38,overcast clouds
29,29,Tiksi,RU,2022-03-12 17:32:33,71.6872,128.8694,-18.56,99,66,6.4,broken clouds
30,30,Punta Arenas,CL,2022-03-12 17:29:26,-53.15,-70.9167,50.11,66,75,17.27,broken clouds
31,31,Jamestown,US,2022-03-12 17:27:43,42.097,-79.2353,20.84,57,100,24.16,overcast clouds
32,32,Geraldton,AU,2022-03-12 17:31:30,-28.7667,114.6,66.61,82,25,0.0,scattered clouds
33,33,Kruisfontein,ZA,2022-03-12 17:28:13,-34.0033,24.7314,83.88,54,27,3.67,scattered clouds
34,34,Katsuura,JP,2022-03-12 17:32:34,35.1333,140.3,56.66,86,46,4.54,scattered clouds
35,35,Sattahip,TH,2022-03-12 17:32:34,12.6664,100.9007,87.98,89,20,4.61,few clouds
36,36,Ostrovnoy,RU,2022-03-12 17:32:34,68.0531,39.5131,30.34,76,100,17.72,overcast clouds
37,37,Hithadhoo,MV,2022-03-12 17:32:35,-0.6,73.0833,82.83,74,19,6.64,few clouds
38,38,Waitati,NZ,2022-03-12 17:32:35,-45.75,170.5667,53.8,82,3,3.42,clear sky
39,39,Pacific Grove,US,2022-03-12 17:32:35,36.6177,-121.9166,61.39,73,0,4.0,clear sky
40,40,Bredasdorp,ZA,2022-03-12 17:32:36,-34.5322,20.0403,72.72,68,7,16.11,clear sky
41,41,Thompson,CA,2022-03-12 17:32:36,55.7435,-97.8558,5.16,51,100,5.75,overcast clouds
42,42,Qaanaaq,GL,2022-03-12 17:32:36,77.484,-69.3632,-11.22,69,3,2.55,clear sky
43,43,Kaitangata,NZ,2022-03-12 17:29:19,-46.2817,169.8464,47.91,94,22,5.3,few clouds
44,44,Chapleau,CA,2022-03-12 17:34:56,47.8405,-83.4034,5.09,66,75,11.5,broken clouds
45,45,Marawi,PH,2022-03-12 17:34:56,7.9986,124.2928,69.3,95,83,1.28,broken clouds
46,46,Avarua,CK,2022-03-12 17:34:56,-21.2078,-159.775,71.65,100,73,1.14,broken clouds
47,47,Emerald,AU,2022-03-12 17:34:32,-23.5333,148.1667,73.54,78,100,9.22,overcast clouds
48,48,Suez,EG,2022-03-12 17:34:57,29.9737,32.5263,52.74,44,0,15.46,clear sky
49,49,Victoria,HK,2022-03-12 17:32:02,22.2855,114.1577,73.45,77,44,5.99,scattered clouds
50,50,Atuona,PF,2022-03-12 17:34:57,-9.8,-139.0333,78.46,75,86,14.92,overcast clouds
51,51,Port Alfred,ZA,2022-03-12 17:34:58,-33.5906,26.891,80.78,73,99,16.67,overcast clouds
52,52,Solone,UA,2022-03-12 17:34:58,48.2081,34.8721,25.03,78,59,2.33,broken clouds
53,53,Little Current,CA,2022-03-12 17:30:22,45.9793,-81.9248,15.42,60,55,17.78,broken clouds
54,54,Puerto Ayora,EC,2022-03-12 17:34:58,-0.7393,-90.3518,85.96,84,33,7.0,scattered clouds
55,55,Cidreira,BR,2022-03-12 17:34:59,-30.1811,-50.2056,72.28,57,94,10.27,overcast clouds
56,56,Los Llanos De Aridane,ES,2022-03-12 17:34:59,28.6585,-17.9182,64.15,83,75,11.5,broken clouds
57,57,Bluff,NZ,2022-03-12 17:34:59,-46.6,168.3333,50.81,88,20,6.78,few clouds
58,58,Saint-Philippe,RE,2022-03-12 17:35:00,-21.3585,55.7679,78.39,88,71,14.38,moderate rain
59,59,Kaeo,NZ,2022-03-12 17:35:00,-35.1,173.7833,66.33,92,100,2.1,overcast clouds
60,60,Lixourion,GR,2022-03-12 17:35:00,38.2019,20.4314,46.4,76,40,0.0,scattered clouds
61,61,Port Elizabeth,ZA,2022-03-12 17:35:01,-33.918,25.5701,85.1,73,0,4.61,clear sky
62,62,Benguela,AO,2022-03-12 17:35:01,-12.5763,13.4055,78.67,81,100,5.75,overcast clouds
63,63,Nuuk,GL,2022-03-12 17:35:01,64.1835,-51.7216,11.01,72,75,6.91,light shower snow
64,64,Hermanus,ZA,2022-03-12 17:35:02,-34.4187,19.2345,67.8,87,6,17.52,clear sky
65,65,Phu Ly,VN,2022-03-12 17:35:02,20.5411,105.9139,68.95,95,53,3.8,broken clouds
66,66,Dzhalil,RU,2022-03-12 17:35:02,55.0239,52.7358,-8.1,100,36,1.1,scattered clouds
67,67,Severo-Kurilsk,RU,2022-03-12 17:35:03,50.6789,156.125,30.4,89,96,8.41,overcast clouds
68,68,Ilulissat,GL,2022-03-12 17:35:03,69.2167,-51.1,5.02,66,75,4.61,broken clouds
69,69,Debre Tabor,ET,2022-03-12 17:35:03,11.85,38.0167,55.49,70,98,6.58,overcast clouds
70,70,Barrow,US,2022-03-12 17:35:04,71.2906,-156.7887,-18.38,69,0,6.91,clear sky
71,71,Pergamino,AR,2022-03-12 17:35:04,-33.89,-60.5736,75.18,42,0,7.16,clear sky
72,72,Bambous Virieux,MU,2022-03-12 17:35:04,-20.3428,57.7575,79.21,94,40,8.05,light rain
73,73,Nouadhibou,MR,2022-03-12 17:35:05,20.931,-17.0347,73.38,60,0,17.27,clear sky
74,74,Georgetown,MY,2022-03-12 17:35:05,5.4112,100.3354,82.35,83,20,0.0,few clouds
75,75,Mayo,US,2022-03-12 17:35:05,38.8876,-76.5119,34.99,90,100,21.99,light rain
76,76,Dikson,RU,2022-03-12 17:35:06,73.5069,80.5464,-10.53,92,100,20.69,overcast clouds
77,77,Longyearbyen,SJ,2022-03-12 17:35:06,78.2186,15.6401,17.44,57,75,4.61,broken clouds
78,78,Darab,IR,2022-03-12 17:35:06,28.7519,54.5444,68.11,29,8,2.98,clear sky
79,79,Tura,IN,2022-03-12 17:35:07,25.5198,90.2201,70.95,24,30,2.39,scattered clouds
80,80,Cape Town,ZA,2022-03-12 17:31:09,-33.9258,18.4232,72.09,73,75,10.36,broken clouds
81,81,Gemena,CD,2022-03-12 17:35:07,3.25,19.7667,71.15,91,99,2.21,light rain
82,82,Kapaa,US,2022-03-12 17:35:07,22.0752,-159.319,73.72,78,0,12.66,clear sky
83,83,San Patricio,US,2022-03-12 17:35:08,28.017,-97.5169,51.69,28,18,10.36,few clouds
84,84,Ixtapa,MX,2022-03-12 17:30:58,20.7,-105.2,72.63,56,0,0.0,clear sky
85,85,Torbay,CA,2022-03-12 17:35:08,47.6666,-52.7314,40.28,71,75,20.71,broken clouds
86,86,Chokurdakh,RU,2022-03-12 17:30:14,70.6333,147.9167,-28.97,100,40,3.98,scattered clouds
87,87,Lebu,CL,2022-03-12 17:35:09,-37.6167,-73.65,64.09,71,5,18.05,clear sky
88,88,Yellowknife,CA,2022-03-12 17:30:52,62.456,-114.3525,3.42,84,75,8.05,light snow
89,89,Anchorage,US,2022-03-12 17:33:04,61.2181,-149.9003,33.31,95,100,6.91,mist
90,90,Itarema,BR,2022-03-12 17:35:09,-2.9248,-39.9167,82.81,66,99,5.44,overcast clouds
91,91,Butaritari,KI,2022-03-12 17:35:10,3.0707,172.7902,81.25,76,16,20.65,few clouds
92,92,Jonesboro,US,2022-03-12 17:36:10,35.8423,-90.7043,32.04,35,0,4.61,clear sky
93,93,Hilo,US,2022-03-12 17:36:10,19.7297,-155.09,73.62,89,75,5.75,broken clouds
94,94,Nueva Guinea,NI,2022-03-12 17:36:11,11.6876,-84.4562,92.16,35,42,8.34,scattered clouds
95,95,Kamenka,RU,2022-03-12 17:36:11,51.3223,42.7678,2.3,98,100,3.85,overcast clouds
96,96,Pangnirtung,CA,2022-03-12 17:36:12,66.1451,-65.7125,-22.0,69,20,3.44,few clouds
97,97,Kangaatsiaq,GL,2022-03-12 17:36:12,68.3065,-53.4641,-1.89,86,100,7.49,overcast clouds
98,98,Peniche,PT,2022-03-12 17:36:12,39.3558,-9.3811,58.28,94,100,16.58,light rain
99,99,Ternate,ID,2022-03-12 17:36:13,0.8,127.4,81.01,79,99,3.18,overcast clouds
100,100,Gravdal,NO,2022-03-12 17:36:13,68.1214,13.5031,39.07,76,56,8.25,broken clouds
101,101,Dingle,PH,2022-03-12 17:36:13,10.9995,122.6711,76.37,90,71,4.52,broken clouds
102,102,Nikolskoye,RU,2022-03-12 17:36:14,59.7035,30.7861,34.72,95,97,3.13,overcast clouds
103,103,Kudahuvadhoo,MV,2022-03-12 17:36:14,2.6708,72.8944,82.67,69,1,9.48,clear sky
104,104,Iserlohn,DE,2022-03-12 17:36:14,51.3667,7.7,52.32,56,20,6.91,few clouds
105,105,Marzuq,YE,2022-03-12 17:36:15,14.4,46.4667,65.01,51,13,7.47,few clouds
106,106,Burriana,ES,2022-03-12 17:36:15,39.889,-0.085,67.05,61,19,6.04,few clouds
107,107,Hasaki,JP,2022-03-12 17:36:15,35.7333,140.8333,48.6,79,81,14.23,broken clouds
108,108,Alagir,RU,2022-03-12 17:36:16,43.0422,44.2222,27.14,82,100,3.89,overcast clouds
109,109,Arraial Do Cabo,BR,2022-03-12 17:36:16,-22.9661,-42.0278,85.96,74,20,13.8,few clouds
110,110,Letka,RU,2022-03-12 17:36:16,59.6011,49.4232,18.45,97,96,5.82,overcast clouds
111,111,Ancud,CL,2022-03-12 17:36:17,-41.8697,-73.8203,71.22,67,9,7.94,clear sky
112,112,Sovetskiy,RU,2022-03-12 17:36:17,61.3614,63.5842,11.21,93,100,9.71,overcast clouds
113,113,Provideniya,RU,2022-03-12 17:36:17,64.3833,-173.3,13.01,66,0,10.74,clear sky
114,114,Darlawn,IN,2022-03-12 17:36:18,24.0167,92.9,59.56,43,17,3.29,few clouds
115,115,Bend,US,2022-03-12 17:36:18,44.0582,-121.3153,54.99,32,0,14.97,clear sky
116,116,Port Lincoln,AU,2022-03-12 17:36:19,-34.7333,135.8667,67.95,71,73,11.3,broken clouds
117,117,San Quintin,MX,2022-03-12 17:36:19,30.4833,-115.95,66.34,25,100,3.98,overcast clouds
118,118,Polson,US,2022-03-12 17:36:19,47.6936,-114.1632,36.48,59,100,7.07,overcast clouds
119,119,Khatanga,RU,2022-03-12 17:36:20,71.9667,102.5,-23.51,100,98,6.53,overcast clouds
120,120,Hobart,AU,2022-03-12 17:36:04,-42.8794,147.3294,54.05,93,6,8.05,clear sky
121,121,Manaus,BR,2022-03-12 17:35:49,-3.1019,-60.025,90.1,66,40,5.75,scattered clouds
122,122,Cabo San Lucas,MX,2022-03-12 17:36:20,22.8909,-109.9124,75.61,69,0,4.0,clear sky
123,123,Tromso,NO,2022-03-12 17:36:20,69.6496,18.957,37.42,81,0,2.3,clear sky
124,124,Plettenberg Bay,ZA,2022-03-12 17:36:21,-34.0527,23.3716,75.33,69,28,10.2,scattered clouds
125,125,Orissaare,EE,2022-03-12 17:36:21,58.5592,23.0826,36.01,79,8,4.52,clear sky
126,126,Awjilah,LY,2022-03-12 17:36:21,29.1081,21.2869,59.34,39,0,6.44,clear sky
127,127,Sonoita,MX,2022-03-12 17:36:22,31.85,-112.8333,68.04,10,41,9.82,scattered clouds
128,128,Touros,BR,2022-03-12 17:32:37,-5.1989,-35.4608,84.94,63,100,11.05,overcast clouds
129,129,Puerto El Triunfo,SV,2022-03-12 17:36:22,13.2833,-88.55,90.46,59,22,12.66,few clouds
130,130,Warmbad,,2022-03-12 17:36:23,-28.45,18.7333,75.0,67,55,14.81,broken clouds
131,131,Gorontalo,ID,2022-03-12 17:36:23,0.5412,123.0595,76.95,96,100,3.2,overcast clouds
132,132,Petropavlovsk-Kamchatskiy,RU,2022-03-12 17:36:23,53.0452,158.6483,27.19,74,75,2.24,broken clouds
133,133,Castro,BR,2022-03-12 17:36:24,-24.7911,-50.0119,67.57,94,99,7.94,overcast clouds
134,134,Roebourne,AU,2022-03-12 17:36:24,-20.7833,117.1333,87.58,49,3,8.48,clear sky
135,135,Whitehorse,CA,2022-03-12 17:35:31,60.7161,-135.0538,19.81,84,100,5.99,light snow
136,136,Rocha,UY,2022-03-12 17:32:26,-34.4833,-54.3333,71.67,44,2,10.71,clear sky
137,137,Belmonte,BR,2022-03-12 17:37:24,-15.8631,-38.8828,83.89,65,2,8.77,clear sky
138,138,Tessalit,ML,2022-03-12 17:37:25,20.1986,1.0114,83.34,8,0,9.42,clear sky
139,139,Hervey Bay,AU,2022-03-12 17:37:25,-25.2986,152.8535,73.2,73,7,13.82,clear sky
140,140,San Diego De La Union,MX,2022-03-12 17:37:26,21.4667,-100.8667,54.14,50,59,12.41,broken clouds
141,141,Tateyama,JP,2022-03-12 17:37:26,34.9833,139.8667,53.1,77,50,11.61,scattered clouds
142,142,Santiago,CL,2022-03-12 17:37:26,-33.4569,-70.6483,85.28,30,0,9.22,clear sky
143,143,Poum,NC,2022-03-12 17:37:27,-20.2333,164.0167,80.55,78,4,9.44,clear sky
144,144,Hof,DE,2022-03-12 17:37:27,50.3167,11.9167,42.03,26,0,6.91,clear sky
145,145,Komsomolskiy,UZ,2022-03-12 17:37:27,40.4272,71.7189,52.52,93,75,2.3,mist
146,146,Clyde River,CA,2022-03-12 17:37:28,70.4692,-68.5914,-19.97,76,100,4.61,overcast clouds
147,147,Meadow Lake,US,2022-03-12 17:37:28,34.8014,-106.5436,49.73,23,0,7.54,clear sky
148,148,Nandu,CN,2022-03-12 17:37:28,22.8525,110.8233,69.49,75,28,3.24,scattered clouds
149,149,Saldanha,ZA,2022-03-12 17:37:29,-33.0117,17.9442,69.85,90,40,9.04,scattered clouds
150,150,Folldal,NO,2022-03-12 17:37:29,62.1325,9.9968,16.54,87,2,8.77,clear sky
151,151,Meulaboh,ID,2022-03-12 17:37:29,4.1363,96.1285,78.3,87,94,3.13,overcast clouds
152,152,Winslow,US,2022-03-12 17:37:30,35.0242,-110.6974,35.78,69,0,5.75,clear sky
153,153,Egvekinot,RU,2022-03-12 17:37:30,66.3167,-179.1667,8.8,56,0,9.64,clear sky
154,154,Deputatskiy,RU,2022-03-12 17:37:30,69.3,139.9,-19.7,100,73,0.81,broken clouds
155,155,Srivardhan,IN,2022-03-12 17:37:31,18.0333,73.0167,80.29,54,19,6.35,few clouds
156,156,Okakarara,,2022-03-12 17:37:31,-20.5833,17.4333,78.06,39,51,5.61,broken clouds
157,157,Vardo,NO,2022-03-12 17:37:31,70.3705,31.1107,32.63,72,92,3.11,overcast clouds
158,158,Sangar,RU,2022-03-12 17:37:32,63.9242,127.4739,-20.49,100,74,4.38,broken clouds
159,159,Rupert,US,2022-03-12 17:33:12,42.6191,-113.6772,44.55,39,0,18.41,clear sky
160,160,Alofi,NU,2022-03-12 17:37:32,-19.0595,-169.9187,75.09,94,99,2.3,overcast clouds
161,161,Vila Franca Do Campo,PT,2022-03-12 17:37:32,37.7167,-25.4333,63.19,62,99,5.84,overcast clouds
162,162,Seymchan,RU,2022-03-12 17:37:33,62.8833,152.4333,-3.28,96,98,4.0,overcast clouds
163,163,Rio Grande,BR,2022-03-12 17:35:35,-32.035,-52.0986,78.91,53,9,11.54,clear sky
164,164,Lata,PT,2022-03-12 17:37:33,40.1629,-8.3327,54.07,97,100,6.4,light rain
165,165,Burns Lake,CA,2022-03-12 17:37:34,54.2331,-125.7533,27.82,79,69,3.53,broken clouds
166,166,Coihaique,CL,2022-03-12 17:33:06,-45.5752,-72.0662,65.01,52,20,3.44,few clouds
167,167,Banda Aceh,ID,2022-03-12 17:37:34,5.5577,95.3222,79.65,83,99,5.64,overcast clouds
168,168,Takoradi,GH,2022-03-12 17:37:34,4.8845,-1.7554,82.72,75,78,10.51,broken clouds
169,169,Tuy Hoa,VN,2022-03-12 17:33:54,13.0833,109.3,70.59,90,32,3.87,scattered clouds
170,170,Gimli,CA,2022-03-12 17:37:35,50.6336,-96.9907,1.42,66,100,18.41,overcast clouds
171,171,Husavik,IS,2022-03-12 17:37:35,66.0449,-17.3389,33.62,69,12,16.42,few clouds
172,172,Batagay-Alyta,RU,2022-03-12 17:37:35,67.8006,130.4114,-12.19,89,100,4.43,overcast clouds
173,173,Kampong Cham,KH,2022-03-12 17:37:36,11.9934,105.4635,79.68,48,100,5.44,overcast clouds
174,174,Berlevag,NO,2022-03-12 17:37:36,70.8578,29.0864,31.26,84,100,4.83,overcast clouds
175,175,Chuy,UY,2022-03-12 17:37:37,-33.6971,-53.4616,70.63,47,7,10.22,clear sky
176,176,Aginskoye,RU,2022-03-12 17:37:37,51.1,114.53,-1.5,97,75,3.85,broken clouds
177,177,Lincoln,US,2022-03-12 17:37:37,40.8,-96.667,31.01,47,0,16.11,clear sky
178,178,Udachnyy,RU,2022-03-12 17:37:38,66.4167,112.4,-27.45,100,92,1.36,overcast clouds
179,179,Krasnoarmeyskoye,RU,2022-03-12 17:37:38,52.7182,50.0322,-3.26,100,38,4.18,scattered clouds
180,180,Zhanaozen,KZ,2022-03-12 17:37:38,43.3,52.8,33.67,76,99,16.8,overcast clouds
181,181,Norman Wells,CA,2022-03-12 17:37:39,65.282,-126.8329,-7.56,71,75,14.97,broken clouds
182,182,Awbari,LY,2022-03-12 17:37:39,26.5921,12.7805,61.48,19,1,8.5,clear sky
183,183,Sao Miguel Do Araguaia,BR,2022-03-12 17:37:39,-13.275,-50.1628,82.92,73,100,4.61,light rain
184,184,Mahebourg,MU,2022-03-12 17:38:40,-20.4081,57.7,79.25,94,40,8.05,scattered clouds
185,185,Mar Del Plata,AR,2022-03-12 17:38:40,-38.0023,-57.5575,66.22,71,20,10.36,few clouds
186,186,Sao Joao Da Barra,BR,2022-03-12 17:38:41,-21.6403,-41.0511,91.49,74,0,14.47,clear sky
187,187,Kapuskasing,CA,2022-03-12 17:38:41,49.4169,-82.4331,6.89,66,75,16.11,broken clouds
188,188,Kattivakkam,IN,2022-03-12 17:38:41,13.2167,80.3167,81.07,81,9,6.29,clear sky
189,189,Banepa,NP,2022-03-12 17:38:42,27.6298,85.5214,59.32,77,20,3.44,few clouds
190,190,Luanda,AO,2022-03-12 17:38:42,-8.8368,13.2343,82.4,74,20,9.22,few clouds
191,191,Katangli,RU,2022-03-12 17:38:42,51.7102,143.2326,11.95,96,88,4.65,overcast clouds
192,192,Matamoros,MX,2022-03-12 17:38:43,25.5333,-103.25,53.71,30,20,8.05,few clouds
193,193,Ilula,TZ,2022-03-12 17:38:43,-7.6766,36.0366,72.14,96,70,2.37,broken clouds
194,194,Fare,PF,2022-03-12 17:38:43,-16.7,-151.0167,81.3,72,74,10.94,broken clouds
195,195,Kampene,CD,2022-03-12 17:38:44,-3.6,26.6667,69.57,99,99,2.15,moderate rain
196,196,Upernavik,GL,2022-03-12 17:38:44,72.7868,-56.1549,-9.89,92,100,13.31,overcast clouds
197,197,Grand Gaube,MU,2022-03-12 17:38:44,-20.0064,57.6608,79.38,86,26,3.0,scattered clouds
198,198,Te Anau,NZ,2022-03-12 17:38:45,-45.4167,167.7167,45.9,92,8,1.34,clear sky
199,199,Male,MV,2022-03-12 17:38:45,4.1748,73.5089,84.15,74,20,5.75,few clouds
200,200,Oda,JP,2022-03-12 17:38:45,35.1833,132.5,54.27,86,100,9.13,overcast clouds
201,201,Esperance,AU,2022-03-12 17:38:46,-33.8667,121.9,62.44,71,54,5.66,broken clouds
202,202,Broome,US,2022-03-12 17:38:46,42.2506,-75.833,23.45,77,100,18.41,fog
203,203,San Cristobal,VE,2022-03-12 17:38:46,7.7669,-72.225,77.18,56,99,3.09,overcast clouds
204,204,New Norfolk,AU,2022-03-12 17:38:47,-42.7826,147.0587,53.1,98,5,3.09,clear sky
205,205,Great Bend,US,2022-03-12 17:38:47,38.3645,-98.7648,49.84,42,0,17.27,clear sky
206,206,Gedo,ET,2022-03-12 17:38:47,9.0167,37.45,63.68,39,99,2.82,overcast clouds
207,207,Aras,ES,2022-03-12 17:38:48,42.5617,-2.356,54.01,47,0,4.61,clear sky
208,208,Grindavik,IS,2022-03-12 17:38:48,63.8424,-22.4338,37.87,81,75,19.57,broken clouds
209,209,Coquimbo,CL,2022-03-12 17:34:05,-29.9533,-71.3436,64.13,77,100,9.22,overcast clouds
210,210,Bandarbeyla,SO,2022-03-12 17:38:49,9.4942,50.8122,77.54,74,80,12.82,broken clouds
211,211,Tibati,CM,2022-03-12 17:38:49,6.4667,12.6333,88.47,18,71,7.07,broken clouds
212,212,Faya,SA,2022-03-12 17:38:49,18.3851,42.4509,62.71,65,17,3.74,few clouds
213,213,Cao Bang,VN,2022-03-12 17:38:50,22.6667,106.25,67.84,95,100,2.44,overcast clouds
214,214,Airai,TL,2022-03-12 17:38:50,-8.9266,125.4092,60.26,90,94,1.34,overcast clouds
215,215,Celestun,MX,2022-03-12 17:38:50,20.8667,-90.4,76.57,83,33,26.42,scattered clouds
216,216,Leningradskiy,RU,2022-03-12 17:38:51,69.3833,178.4167,1.71,78,46,4.72,scattered clouds
217,217,Ewa Beach,US,2022-03-12 17:38:51,21.3156,-158.0072,76.59,71,0,10.36,clear sky
218,218,Yulara,AU,2022-03-12 17:38:52,-25.2406,130.9889,73.24,23,31,6.91,scattered clouds
219,219,Port Augusta,AU,2022-03-12 17:38:52,-32.5,137.7667,69.51,24,28,7.38,scattered clouds
220,220,Namatanai,PG,2022-03-12 17:38:52,-3.6667,152.4333,78.49,78,34,6.4,scattered clouds
221,221,Rayong,TH,2022-03-12 17:34:47,12.8333,101.4333,85.8,99,84,3.87,broken clouds
222,222,Ambulu,ID,2022-03-12 17:38:53,-8.345,113.6058,76.33,89,100,2.95,overcast clouds
223,223,Chesley,CA,2022-03-12 17:38:53,44.2966,-81.0952,20.79,81,100,21.45,light snow
224,224,Dudinka,RU,2022-03-12 17:38:53,69.4058,86.1778,-23.57,100,26,7.94,scattered clouds
225,225,Kasongo-Lunda,CD,2022-03-12 17:38:54,-6.4667,16.8167,71.53,98,90,2.77,heavy intensity rain
226,226,Ahipara,NZ,2022-03-12 17:38:54,-35.1667,173.1667,66.7,91,99,3.62,overcast clouds
227,227,Bengkulu,ID,2022-03-12 17:38:55,-3.8004,102.2655,76.39,91,92,4.41,moderate rain
228,228,Constitucion,CL,2022-03-12 17:38:55,-35.3333,-72.4167,68.63,61,5,6.24,clear sky
229,229,Sitka,US,2022-03-12 17:38:55,57.0531,-135.33,39.09,87,100,5.75,light rain
230,230,Ponta Do Sol,PT,2022-03-12 17:39:55,32.6667,-17.1,68.0,68,97,11.03,overcast clouds
231,231,Caceres,ES,2022-03-12 17:39:56,39.522,-6.3748,52.09,87,100,9.48,light rain
232,232,Krasnomayskiy,RU,2022-03-12 17:39:56,57.6194,34.4099,21.51,99,71,2.84,broken clouds
233,233,Nagarote,NI,2022-03-12 17:39:57,12.2659,-86.5647,89.28,33,5,5.21,clear sky
234,234,Soyo,AO,2022-03-12 17:39:57,-6.1349,12.3689,81.14,77,100,6.78,overcast clouds
235,235,Kui Buri,TH,2022-03-12 17:39:57,12.0828,99.8543,77.95,77,97,5.48,overcast clouds
236,236,Baykit,RU,2022-03-12 17:39:58,61.67,96.37,-19.25,99,93,3.18,overcast clouds
237,237,Lavrentiya,RU,2022-03-12 17:39:58,65.5833,-171.0,1.62,80,3,8.43,clear sky
238,238,Namibe,AO,2022-03-12 17:39:59,-15.1961,12.1522,73.44,81,92,13.6,overcast clouds
239,239,Carnarvon,AU,2022-03-12 17:39:59,-24.8667,113.6333,75.27,83,4,12.66,clear sky
240,240,Niamey,NE,2022-03-12 17:40:00,13.5137,2.1098,98.89,9,31,6.91,dust
241,241,Tomatlan,MX,2022-03-12 17:40:00,19.9333,-105.25,84.27,36,0,8.68,clear sky
242,242,East London,ZA,2022-03-12 17:35:06,-33.0153,27.9116,83.34,74,0,5.75,clear sky
243,243,Vanavara,RU,2022-03-12 17:40:01,60.34,102.2797,-19.07,100,95,1.81,overcast clouds
244,244,Majene,ID,2022-03-12 17:40:01,-3.5403,118.9707,78.55,86,100,4.97,moderate rain
245,245,La Ciotat,FR,2022-03-12 17:40:02,43.1748,5.6045,54.79,72,100,29.84,light rain
246,246,Fortuna,US,2022-03-12 17:40:02,40.5982,-124.1573,59.94,39,0,14.97,clear sky
247,247,Iqaluit,CA,2022-03-12 17:40:03,63.7506,-68.5145,-16.87,68,20,2.3,few clouds
248,248,Saskylakh,RU,2022-03-12 17:40:03,71.9167,114.0833,-15.68,99,100,2.84,overcast clouds
249,249,Lorengau,PG,2022-03-12 17:40:04,-2.0226,147.2712,81.55,75,76,6.02,broken clouds
250,250,College,US,2022-03-12 17:36:02,64.8569,-147.8028,6.48,86,3,4.61,clear sky
251,251,Mackay,AU,2022-03-12 17:40:04,-21.15,149.2,80.58,69,75,20.71,broken clouds
252,252,Daud Khel,PK,2022-03-12 17:40:04,32.875,71.5701,73.96,35,72,3.49,broken clouds
253,253,Champerico,GT,2022-03-12 17:40:05,14.3,-91.9167,90.14,58,11,16.02,few clouds
254,254,Cochabamba,BO,2022-03-12 17:39:37,-17.3895,-66.1568,71.35,54,75,5.01,broken clouds
255,255,Wanaka,NZ,2022-03-12 17:37:53,-44.7,169.15,53.11,82,60,2.71,broken clouds
256,256,Tabuk,PH,2022-03-12 17:40:06,17.4189,121.4443,71.62,91,100,0.09,overcast clouds
257,257,Las Cruces,US,2022-03-12 17:38:42,32.3123,-106.7783,52.0,48,0,4.0,clear sky
258,258,Ayr,GB,2022-03-12 17:40:07,55.4627,-4.6339,45.93,76,20,13.8,few clouds
259,259,Jacksonville,US,2022-03-12 17:38:12,30.3322,-81.6556,64.51,63,40,26.46,scattered clouds
260,260,Bollnas,SE,2022-03-12 17:40:07,61.3482,16.3946,30.94,85,100,3.89,overcast clouds
261,261,Cangucu,BR,2022-03-12 17:40:07,-31.395,-52.6756,74.41,35,0,5.93,clear sky
262,262,Charters Towers,AU,2022-03-12 17:40:08,-20.1,146.2667,72.12,87,31,9.44,scattered clouds
263,263,Aykhal,RU,2022-03-12 17:40:08,66.0,111.5,-22.81,100,96,1.19,overcast clouds
264,264,Soe,ID,2022-03-12 17:40:09,-9.8607,124.284,67.05,94,99,3.44,overcast clouds
265,265,Camana,PE,2022-03-12 17:40:09,-16.6228,-72.7111,76.26,74,79,8.23,broken clouds
266,266,Berberati,CF,2022-03-12 17:40:09,4.2612,15.7922,75.29,66,90,4.5,overcast clouds
267,267,Waounde,SN,2022-03-12 17:40:10,15.2637,-12.8682,99.75,7,0,10.47,clear sky
268,268,Great Malvern,GB,2022-03-12 17:40:10,52.1116,-2.3252,50.77,71,87,8.99,overcast clouds
269,269,Madison Heights,US,2022-03-12 17:40:11,42.4859,-83.1052,23.27,55,100,20.71,overcast clouds
270,270,Pevek,RU,2022-03-12 17:40:13,69.7008,170.3133,-12.01,100,98,2.93,overcast clouds
271,271,Sambava,MG,2022-03-12 17:40:14,-14.2667,50.1667,78.12,87,100,10.36,light rain
272,272,Panaba,MX,2022-03-12 17:40:14,21.2833,-88.2667,91.9,39,6,13.38,clear sky
273,273,Nanortalik,GL,2022-03-12 17:40:15,60.1432,-45.2371,15.17,76,100,43.55,light snow
274,274,Zafarwal,PK,2022-03-12 17:40:15,32.3463,74.8999,65.91,54,62,4.14,broken clouds
275,275,Torata,PE,2022-03-12 17:40:15,-17.0769,-70.8433,63.1,69,95,8.84,overcast clouds
276,276,Narsaq,GL,2022-03-12 17:40:16,60.9167,-46.05,17.82,78,100,7.0,overcast clouds
277,277,Codrington,AU,2022-03-12 17:40:16,-38.2667,141.9667,52.84,92,0,7.92,clear sky
278,278,Beloha,MG,2022-03-12 17:40:16,-25.1667,45.05,76.14,77,10,17.27,clear sky
279,279,Charlestown,AU,2022-03-12 17:41:17,-32.95,151.6667,63.73,91,46,1.01,scattered clouds
280,280,Swan Hill,AU,2022-03-12 17:41:17,-35.3378,143.5544,67.46,69,23,6.58,few clouds
281,281,Dodola,ET,2022-03-12 17:41:18,6.9833,39.1833,58.59,47,100,6.4,overcast clouds
282,282,Denizli,TR,2022-03-12 17:41:18,37.8402,29.0698,27.48,69,55,7.49,broken clouds
283,283,Buchanan,LR,2022-03-12 17:37:35,5.8808,-10.0467,82.98,73,100,7.02,overcast clouds
284,284,Roma,US,2022-03-12 17:40:37,43.2128,-75.4557,25.52,83,100,21.99,snow
285,285,Saint Anthony,US,2022-03-12 17:41:18,45.0205,-93.218,15.04,49,17,3.0,few clouds
286,286,Nome,US,2022-03-12 17:41:19,64.5011,-165.4064,21.27,38,0,19.57,clear sky
287,287,Ukiah,US,2022-03-12 17:41:19,39.1502,-123.2078,61.65,38,0,0.0,clear sky
288,288,Port Shepstone,ZA,2022-03-12 17:41:20,-30.7414,30.455,77.14,83,30,22.53,scattered clouds
289,289,Lompoc,US,2022-03-12 17:41:20,34.6391,-120.4579,67.12,35,0,6.91,clear sky
290,290,Tougue,GN,2022-03-12 17:41:20,11.4667,-11.6,93.79,11,57,5.99,broken clouds
291,291,Wallaceburg,CA,2022-03-12 17:41:21,42.593,-82.3885,21.97,45,88,19.46,overcast clouds
292,292,Kurilsk,RU,2022-03-12 17:41:21,45.2333,147.8833,31.17,98,100,13.06,snow
293,293,Klaksvik,FO,2022-03-12 17:41:21,62.2266,-6.589,43.72,90,100,7.52,overcast clouds
294,294,Fontenay-Le-Comte,FR,2022-03-12 17:41:22,46.5833,-1.0,55.04,89,60,14.88,broken clouds
295,295,Shebalino,RU,2022-03-12 17:41:22,51.2917,85.6772,16.56,96,100,2.39,light snow
296,296,Puksoozero,RU,2022-03-12 17:41:23,62.5903,40.6066,29.14,98,100,4.03,overcast clouds
297,297,Fairbanks,US,2022-03-12 17:37:32,64.8378,-147.7164,6.49,87,3,4.29,clear sky
298,298,Bahia Blanca,AR,2022-03-12 17:41:23,-38.7196,-62.2724,81.84,20,8,8.01,clear sky
299,299,San Carlos,VE,2022-03-12 17:41:23,9.6612,-68.5827,91.06,46,100,0.51,overcast clouds
300,300,Challapata,BO,2022-03-12 17:41:24,-18.9,-66.7667,54.82,52,97,4.83,overcast clouds
301,301,Grasten,DK,2022-03-12 17:41:24,54.9192,9.5952,43.99,61,58,13.8,broken clouds
302,302,Padang,ID,2022-03-12 17:41:24,-0.9492,100.3543,80.65,88,99,3.02,overcast clouds
303,303,Faanui,PF,2022-03-12 17:41:25,-16.4833,-151.75,81.73,71,100,12.15,light rain
304,304,Coahuayana,MX,2022-03-12 17:41:25,18.7333,-103.6833,86.07,37,8,7.31,clear sky
305,305,Lagoa,PT,2022-03-12 17:41:25,39.05,-27.9833,57.2,60,89,12.57,overcast clouds
306,306,Northam,GB,2022-03-12 17:41:26,51.0333,-4.2167,46.62,89,100,32.3,moderate rain
307,307,Kahului,US,2022-03-12 17:39:37,20.8947,-156.47,75.85,68,20,11.5,few clouds
308,308,Bethel,US,2022-03-12 17:40:55,41.3712,-73.414,33.49,89,100,12.66,snow
309,309,Mlonggo,ID,2022-03-12 17:41:26,-6.5333,110.7,78.93,88,100,6.8,overcast clouds
310,310,Beroroha,MG,2022-03-12 17:41:26,-21.6667,45.1667,78.21,69,99,4.85,overcast clouds
311,311,Yumen,CN,2022-03-12 17:41:27,40.2833,97.2,49.69,21,98,12.33,overcast clouds
312,312,Dustlik,UZ,2022-03-12 17:41:27,40.5247,68.0358,59.18,76,100,8.25,overcast clouds
313,313,Murdochville,CA,2022-03-12 17:41:28,48.9583,-65.5006,29.28,98,100,4.27,snow
314,314,Mae Tha,TH,2022-03-12 17:41:30,18.4646,99.1403,86.45,40,87,1.28,overcast clouds
315,315,Huarmey,PE,2022-03-12 17:41:31,-10.0681,-78.1522,77.88,71,74,8.93,broken clouds
316,316,Sibolga,ID,2022-03-12 17:41:31,1.7427,98.7792,76.87,88,84,2.73,broken clouds
317,317,Mchinji,MW,2022-03-12 17:41:32,-13.7984,32.8802,63.14,98,78,4.43,broken clouds
318,318,Mount Gambier,AU,2022-03-12 17:41:32,-37.8333,140.7667,49.91,87,0,4.61,clear sky
319,319,Ust-Nera,RU,2022-03-12 17:41:33,64.5667,143.2,-10.48,96,100,3.71,overcast clouds
320,320,Richards Bay,ZA,2022-03-12 17:41:33,-28.783,32.0377,76.44,80,0,11.1,clear sky
321,321,Cabedelo,BR,2022-03-12 17:41:33,-6.9811,-34.8339,86.67,66,90,10.45,overcast clouds
322,322,Isiro,CD,2022-03-12 17:41:34,2.7739,27.616,69.64,90,96,3.76,overcast clouds
323,323,Oktyabrskoye,RU,2022-03-12 17:42:34,43.0645,44.7417,26.74,86,40,2.24,scattered clouds
324,324,Tuatapere,NZ,2022-03-12 17:42:34,-46.1333,167.6833,48.2,90,9,3.91,clear sky
325,325,Kidal,ML,2022-03-12 17:42:35,18.4411,1.4078,85.78,8,0,5.68,clear sky
326,326,Talnakh,RU,2022-03-12 17:42:35,69.4865,88.3972,-23.15,96,40,7.25,scattered clouds
327,327,Chililabombwe,ZM,2022-03-12 17:42:35,-12.3648,27.8229,63.52,95,100,3.44,moderate rain
328,328,Foso,GH,2022-03-12 17:42:36,5.7012,-1.2866,83.1,67,75,8.1,broken clouds
329,329,Ambatondrazaka,MG,2022-03-12 17:42:36,-17.8333,48.4167,66.69,92,75,5.37,broken clouds
330,330,Sabang,ID,2022-03-12 17:42:37,5.8933,95.3214,82.81,74,70,6.69,broken clouds
331,331,Bundaberg,AU,2022-03-12 17:42:37,-24.85,152.35,66.49,92,40,6.91,scattered clouds
332,332,Borovskoy,KZ,2022-03-12 17:42:37,53.8,64.15,0.09,98,56,9.08,broken clouds
333,333,Goderich,CA,2022-03-12 17:41:20,43.7501,-81.7165,21.9,53,100,17.27,overcast clouds
334,334,Epe,NG,2022-03-12 17:42:38,6.5841,3.9834,81.82,81,100,10.67,overcast clouds
335,335,The Valley,AI,2022-03-12 17:42:38,18.217,-63.0578,82.81,65,75,23.02,haze
336,336,Adrar,MR,2022-03-12 17:42:39,20.5022,-10.0711,82.63,6,0,10.96,clear sky
337,337,Gamba,GA,2022-03-12 17:42:23,-2.65,10.0,78.57,86,99,3.6,moderate rain
338,338,Tibasosa,CO,2022-03-12 17:42:39,5.75,-73.0,62.94,74,100,4.59,overcast clouds
339,339,Kalmunai,LK,2022-03-12 17:42:39,7.4167,81.8167,78.69,86,71,7.61,broken clouds
340,340,Puerto Escondido,MX,2022-03-12 17:42:40,15.85,-97.0667,81.43,78,40,13.8,scattered clouds
341,341,Oxford,GB,2022-03-12 17:41:34,51.7522,-1.256,51.19,69,20,20.71,few clouds
342,342,Hofn,IS,2022-03-12 17:42:40,64.2539,-15.2082,41.32,63,58,16.17,light rain
343,343,Isetskoye,RU,2022-03-12 17:42:40,56.4858,65.3226,-14.94,100,21,4.03,few clouds
344,344,Matara,LK,2022-03-12 17:42:41,5.9485,80.5353,77.36,85,68,1.32,moderate rain
345,345,Cherskiy,RU,2022-03-12 17:42:41,68.75,161.3,-6.68,100,100,8.03,overcast clouds
346,346,Araouane,ML,2022-03-12 17:42:42,18.9048,-3.5265,83.28,8,0,10.04,clear sky
347,347,Vestmannaeyjar,IS,2022-03-12 17:38:22,63.4427,-20.2734,38.39,75,20,20.71,light rain
348,348,Bhongir,IN,2022-03-12 17:42:42,17.5108,78.8889,79.0,35,24,1.07,few clouds
349,349,Yarmouth,US,2022-03-12 17:42:43,41.7057,-70.2286,53.96,96,100,8.05,heavy intensity rain
350,350,Jiblah,YE,2022-03-12 17:42:43,13.9216,44.1467,62.15,56,65,2.33,broken clouds
351,351,Coos Bay,US,2022-03-12 17:42:43,43.3665,-124.2179,50.14,93,20,8.05,few clouds
352,352,Lusambo,CD,2022-03-12 17:42:44,-4.9667,23.45,70.45,98,100,3.4,overcast clouds
353,353,Douglas,US,2022-03-12 17:42:44,41.3,-96.167,28.36,36,0,12.66,clear sky
354,354,Gornyy,RU,2022-03-12 17:42:45,55.1153,83.9059,-10.93,99,11,5.86,few clouds
355,355,Sola,VU,2022-03-12 17:42:45,-13.8833,167.55,81.59,73,67,3.56,broken clouds
356,356,Tahoua,NE,2022-03-12 17:42:45,14.8888,5.2692,93.18,16,29,11.5,dust
357,357,Nikki,BJ,2022-03-12 17:42:46,9.9401,3.2108,95.31,21,44,1.36,scattered clouds
358,358,Yartsevo,RU,2022-03-12 17:42:46,55.0667,32.6964,27.82,96,99,5.23,overcast clouds
359,359,Bodden Town,KY,2022-03-12 17:42:47,19.2833,-81.25,86.0,65,20,8.05,few clouds
360,360,Moron,AR,2022-03-12 17:42:47,-34.6534,-58.6198,77.02,47,0,3.44,clear sky
361,361,Guerrero Negro,MX,2022-03-12 17:42:47,27.9769,-114.0611,70.3,20,55,5.86,broken clouds
362,362,Wajid,SO,2022-03-12 17:42:48,3.8093,43.2471,87.57,20,94,12.64,overcast clouds
363,363,Vigrestad,NO,2022-03-12 17:42:48,58.5667,5.7,44.28,70,86,30.31,overcast clouds
364,364,Rundu,,2022-03-12 17:42:48,-17.9333,19.7667,73.0,66,100,5.77,overcast clouds
365,365,Szabadbattyan,HU,2022-03-12 17:42:49,47.119,18.3682,38.89,39,30,5.39,scattered clouds
366,366,Kilrush,IE,2022-03-12 17:42:49,52.6397,-9.4833,42.55,92,100,18.66,overcast clouds
367,367,Miramar,US,2022-03-12 17:42:50,25.9873,-80.2323,90.01,59,40,25.32,scattered clouds
368,368,Nago,JP,2022-03-12 17:42:50,26.5881,127.9761,67.05,66,48,10.16,scattered clouds
369,369,Aurad,IN,2022-03-12 17:42:51,18.25,77.4333,82.2,27,69,7.4,broken clouds
370,370,Kijang,KR,2022-03-12 17:43:51,35.2442,129.2139,62.33,93,100,12.39,overcast clouds
371,371,Kenora,CA,2022-03-12 17:43:51,49.8167,-94.4337,0.77,60,100,15.01,overcast clouds
372,372,Zheleznodorozhnyy,RU,2022-03-12 17:42:00,55.7503,38.0042,28.92,92,100,5.75,overcast clouds
373,373,Tazovskiy,RU,2022-03-12 17:43:52,67.4667,78.7,-13.04,99,13,9.8,few clouds
374,374,Raga,SS,2022-03-12 17:43:52,8.4596,25.678,84.36,16,100,4.85,overcast clouds
375,375,Chilliwack,CA,2022-03-12 17:38:59,49.1747,-121.9443,43.11,92,100,4.61,overcast clouds
376,376,Caravelas,BR,2022-03-12 17:43:53,-17.7125,-39.2481,85.84,57,2,9.31,clear sky
377,377,Warrnambool,AU,2022-03-12 17:43:53,-38.3833,142.4833,55.81,90,1,8.81,clear sky
378,378,Dongsheng,CN,2022-03-12 17:43:53,39.8161,109.9776,42.49,36,82,8.84,broken clouds
379,379,Farah,AF,2022-03-12 17:43:54,32.5,62.5,74.34,29,41,3.98,scattered clouds
380,380,Kaseda,JP,2022-03-12 17:43:54,31.4167,130.3167,60.04,77,37,8.68,scattered clouds
381,381,Columbus,US,2022-03-12 17:43:54,39.9612,-82.9988,24.33,59,75,23.02,broken clouds
382,382,Gwadar,PK,2022-03-12 17:43:55,25.1216,62.3254,77.65,67,56,7.56,broken clouds
383,383,Hobyo,SO,2022-03-12 17:43:55,5.3505,48.5268,78.6,69,88,14.76,overcast clouds
384,384,Cedar City,US,2022-03-12 17:41:35,37.6775,-113.0619,43.39,48,0,0.0,clear sky
385,385,Mococa,BR,2022-03-12 17:43:55,-21.4678,-47.0047,81.03,63,93,5.39,overcast clouds
386,386,Jalu,LY,2022-03-12 17:43:56,29.0331,21.5482,59.07,39,0,7.16,clear sky
387,387,Xinmin,CN,2022-03-12 17:43:56,41.9908,122.8253,36.07,93,73,7.07,broken clouds
388,388,Algiers,DZ,2022-03-12 17:39:04,36.7525,3.042,60.62,63,40,8.05,scattered clouds
389,389,Puerto Suarez,BO,2022-03-12 17:43:57,-18.95,-57.8,79.36,78,100,5.75,overcast clouds
390,390,Bardiyah,LY,2022-03-12 17:43:58,31.7561,25.0865,56.14,60,73,14.41,broken clouds
391,391,Srednekolymsk,RU,2022-03-12 17:43:58,67.45,153.6833,-10.48,95,97,5.77,overcast clouds
392,392,Kokomo,US,2022-03-12 17:40:19,40.4864,-86.1336,20.19,61,100,19.57,overcast clouds
393,393,Uvalde,US,2022-03-12 17:43:59,29.3669,-99.767,50.41,16,0,4.61,clear sky
394,394,Hokitika,NZ,2022-03-12 17:42:24,-42.7167,170.9667,55.9,76,0,5.32,clear sky
395,395,Margate,GB,2022-03-12 17:43:59,51.3813,1.3862,51.31,71,13,4.0,few clouds
396,396,Shintomi,JP,2022-03-12 17:44:00,32.0785,131.4723,55.0,86,20,4.68,few clouds
397,397,Ornskoldsvik,SE,2022-03-12 17:44:00,63.2909,18.7153,27.55,100,97,2.3,overcast clouds
398,398,Kieta,PG,2022-03-12 17:44:00,-6.2167,155.6333,76.96,77,39,1.1,scattered clouds
399,399,Mahajanga,MG,2022-03-12 17:44:01,-15.7167,46.3167,75.22,88,75,13.8,thunderstorm with light rain
400,400,Cabra,ES,2022-03-12 17:44:01,37.4725,-4.4421,56.19,65,100,4.81,overcast clouds
401,401,Naze,JP,2022-03-12 17:44:01,28.3667,129.4833,62.13,78,23,10.13,few clouds
402,402,West Odessa,US,2022-03-12 17:44:02,31.8424,-102.4988,44.69,38,0,16.11,clear sky
403,403,Gold Coast,AU,2022-03-12 17:44:03,-28.0,153.4333,70.0,88,40,6.91,scattered clouds
404,404,Tahe,CN,2022-03-12 17:44:03,52.3333,124.7333,5.79,96,100,2.89,overcast clouds
405,405,Maniitsoq,GL,2022-03-12 17:44:04,65.4167,-52.9,0.82,89,100,10.36,overcast clouds
406,406,Williston,US,2022-03-12 17:44:04,48.147,-103.618,48.81,54,89,5.01,overcast clouds
407,407,Taywarah,AF,2022-03-12 17:44:04,33.35,64.4167,44.46,59,36,4.36,scattered clouds
408,408,Sapa,PH,2022-03-12 17:44:05,5.1544,120.3241,81.03,80,43,3.89,scattered clouds
409,409,Timra,SE,2022-03-12 17:44:05,62.487,17.3257,31.68,86,100,2.3,overcast clouds
410,410,Pisco,PE,2022-03-12 17:44:05,-13.7,-76.2167,75.25,73,0,9.22,clear sky
411,411,Turukhansk,RU,2022-03-12 17:44:06,65.8167,87.9833,-18.06,99,63,7.18,broken clouds
412,412,Mae Chan,TH,2022-03-12 17:44:06,20.1467,99.8526,78.46,51,77,1.07,broken clouds
413,413,Vila Velha,BR,2022-03-12 17:44:06,-20.3297,-40.2925,87.75,72,20,18.41,few clouds
414,414,Ibra,OM,2022-03-12 17:44:07,22.6906,58.5334,77.11,31,5,3.38,clear sky
415,415,Vuktyl,RU,2022-03-12 17:39:08,63.8567,57.3094,21.78,95,100,11.39,light snow
416,416,Inirida,CO,2022-03-12 17:44:07,3.8653,-67.9239,87.3,62,100,0.78,overcast clouds
417,417,Black River,JM,2022-03-12 17:44:07,18.0264,-77.8487,86.5,52,0,19.39,clear sky
418,418,Cattolica,IT,2022-03-12 17:44:02,43.9575,12.7376,45.88,60,23,4.0,few clouds
419,419,Trairi,BR,2022-03-12 17:45:08,-3.2778,-39.2689,82.33,72,99,6.2,overcast clouds
420,420,Robore,BO,2022-03-12 17:45:09,-18.3333,-59.75,69.89,100,100,0.0,light intensity drizzle
421,421,Shchigry,RU,2022-03-12 17:45:09,51.8755,36.9043,24.62,97,100,1.99,overcast clouds
422,422,Biak,ID,2022-03-12 17:45:09,-0.9131,122.8766,75.74,88,97,2.33,overcast clouds
423,423,Manokwari,ID,2022-03-12 17:45:10,-0.8667,134.0833,78.66,81,69,1.1,broken clouds
424,424,Natal,BR,2022-03-12 17:45:10,-5.795,-35.2094,86.65,70,40,17.27,scattered clouds
425,425,Yasnyy,RU,2022-03-12 17:45:11,51.0333,59.8742,-0.71,97,98,10.56,overcast clouds
426,426,Westport,US,2022-03-12 17:45:11,41.1415,-73.3579,35.74,87,100,23.02,light rain
427,427,Novyy Urgal,RU,2022-03-12 17:45:11,51.0736,132.5642,3.63,98,94,1.14,overcast clouds
428,428,Ishigaki,JP,2022-03-12 17:45:12,24.3448,124.1572,70.39,67,2,14.05,clear sky
429,429,Tank,PK,2022-03-12 17:44:27,32.2217,70.3793,77.85,39,96,5.61,overcast clouds
430,430,Kloulklubed,PW,2022-03-12 17:45:12,7.0419,134.2556,79.3,81,96,12.46,overcast clouds
431,431,Qasigiannguit,GL,2022-03-12 17:45:12,68.8193,-51.1922,5.25,93,100,2.64,overcast clouds
432,432,Mto Wa Mbu,TZ,2022-03-12 17:45:13,-3.35,35.85,75.58,49,100,2.08,overcast clouds
433,433,Shubarkuduk,KZ,2022-03-12 17:45:13,49.1447,56.4872,6.37,93,93,8.75,overcast clouds
434,434,Victor Harbor,AU,2022-03-12 17:45:14,-35.5667,138.6167,62.85,56,0,6.13,clear sky
435,435,Potchefstroom,ZA,2022-03-12 17:45:14,-26.7167,27.1,70.84,56,94,5.12,overcast clouds
436,436,Vanimo,PG,2022-03-12 17:45:14,-2.6741,141.3028,78.19,87,69,4.32,broken clouds
437,437,Cavalcante,BR,2022-03-12 17:45:15,-13.7975,-47.4583,80.62,65,68,4.43,broken clouds
438,438,Netrakona,BD,2022-03-12 17:45:15,24.8833,90.7167,70.38,31,55,5.91,broken clouds
439,439,Guadalupe Y Calvo,MX,2022-03-12 17:45:15,26.1,-106.9667,63.23,12,61,2.59,broken clouds
440,440,Laranjeiras,BR,2022-03-12 17:41:11,-10.8064,-37.17,85.62,55,100,10.89,overcast clouds
441,441,Palana,RU,2022-03-12 17:45:16,59.1167,159.9667,1.26,92,6,5.1,clear sky
442,442,San Marcos,US,2022-03-12 17:45:16,33.1434,-117.1661,74.28,23,0,1.99,clear sky
443,443,Zemetchino,RU,2022-03-12 17:45:17,53.4973,42.6163,8.87,91,100,1.52,overcast clouds
444,444,Tiszaluc,HU,2022-03-12 17:45:17,48.0333,21.0833,35.69,33,18,2.75,few clouds
445,445,Fort Nelson,CA,2022-03-12 17:45:17,58.8053,-122.7002,0.99,71,100,8.05,light snow
446,446,Kolokani,ML,2022-03-12 17:45:18,13.5728,-8.0339,95.59,10,3,10.63,clear sky
447,447,Flinders,AU,2022-03-12 17:45:18,-34.5833,150.8552,61.18,88,49,4.0,scattered clouds
448,448,Gigmoto,PH,2022-03-12 17:45:19,13.7796,124.39,77.36,91,100,7.72,overcast clouds
449,449,Semnan,IR,2022-03-12 17:45:19,35.5729,53.3971,58.84,15,0,4.61,clear sky
450,450,Zhigansk,RU,2022-03-12 17:45:20,66.7697,123.3711,-25.38,100,64,4.97,broken clouds
451,451,Hambantota,LK,2022-03-12 17:45:20,6.1241,81.1185,78.71,81,96,2.73,overcast clouds
452,452,Makakilo City,US,2022-03-12 17:41:15,21.3469,-158.0858,75.18,72,0,10.36,clear sky
453,453,Saint-Louis,SN,2022-03-12 17:45:21,16.3333,-15.0,98.24,4,1,13.04,clear sky
454,454,Likasi,CD,2022-03-12 17:45:21,-10.9814,26.7333,63.95,97,100,2.42,light rain
455,455,Dunedin,NZ,2022-03-12 17:45:21,-45.8742,170.5036,53.8,81,6,4.47,clear sky
456,456,Donghai,CN,2022-03-12 17:45:22,22.9459,115.642,74.95,75,77,2.21,broken clouds
457,457,Berezovka,BY,2022-03-12 17:45:22,53.7214,25.4993,31.68,68,84,5.39,broken clouds
458,458,Azare,NG,2022-03-12 17:45:23,11.6765,10.1948,84.2,15,99,8.88,overcast clouds
459,459,Tilichiki,RU,2022-03-12 17:45:23,60.4667,166.1,5.76,95,73,7.36,broken clouds
460,460,Manzhouli,CN,2022-03-12 17:45:24,49.6,117.4333,11.82,98,79,3.51,broken clouds
461,461,Wanning,CN,2022-03-12 17:45:24,18.8003,110.3967,68.72,93,45,3.83,scattered clouds
462,462,Bireun,ID,2022-03-12 17:45:25,5.203,96.7009,78.53,85,60,4.05,broken clouds
463,463,Asau,RO,2022-03-12 17:43:54,46.4333,26.4,27.52,86,24,3.91,few clouds
464,464,Nhulunbuy,AU,2022-03-12 17:46:25,-12.2333,136.7667,83.01,78,40,9.22,scattered clouds
465,465,Kisangani,CD,2022-03-12 17:46:26,0.5167,25.2,70.54,96,100,0.96,moderate rain
466,466,Ballina,AU,2022-03-12 17:46:26,-28.8667,153.5667,64.36,96,75,4.61,broken clouds
467,467,Monte Alegre,BR,2022-03-12 17:46:26,-2.0078,-54.0692,85.84,59,82,3.83,broken clouds
468,468,Kachiry,KZ,2022-03-12 17:46:27,53.0675,76.1036,8.96,90,100,13.11,overcast clouds
469,469,Lishu,CN,2022-03-12 17:46:27,43.3047,124.3278,33.12,96,100,5.37,overcast clouds
470,470,Kathu,TH,2022-03-12 17:46:28,7.9178,98.3332,76.82,76,72,4.41,broken clouds
471,471,Espanola,US,2022-03-12 17:46:28,35.9911,-106.0806,47.28,31,0,5.93,clear sky
472,472,Shelburne,CA,2022-03-12 17:45:22,44.0787,-80.2041,18.05,76,100,20.07,overcast clouds
473,473,Orneta,PL,2022-03-12 17:46:29,54.1148,20.1333,34.12,44,14,1.25,few clouds
474,474,Smirnykh,RU,2022-03-12 17:46:29,49.75,142.8333,17.56,96,94,2.93,overcast clouds
475,475,Ca Mau,VN,2022-03-12 17:46:30,9.1769,105.15,78.4,79,99,3.11,overcast clouds
476,476,Broceni,LV,2022-03-12 17:46:30,56.7,22.5333,30.6,70,2,4.92,clear sky
477,477,Prince George,CA,2022-03-12 17:42:04,53.9166,-122.753,34.63,81,40,11.5,scattered clouds
478,478,Murgab,TM,2022-03-12 17:46:30,37.4966,61.9714,60.67,63,100,13.8,overcast clouds
479,479,Joshimath,IN,2022-03-12 17:46:31,30.5667,79.5667,49.05,41,7,9.19,clear sky
480,480,Sao Felix Do Xingu,BR,2022-03-12 17:46:31,-6.6447,-51.995,87.24,56,52,1.25,broken clouds
481,481,Blackwater,AU,2022-03-12 17:46:32,-23.5833,148.8833,68.29,80,22,10.0,few clouds
482,482,Suna,RU,2022-03-12 17:46:32,57.8338,50.0588,0.86,99,47,4.43,scattered clouds
483,483,Port Hardy,CA,2022-03-12 17:46:32,50.6996,-127.4199,42.98,81,100,17.27,overcast clouds
484,484,Timizart,DZ,2022-03-12 17:46:33,36.8,4.2667,52.41,81,54,5.53,broken clouds
485,485,Mazatlan,MX,2022-03-12 17:46:33,23.2167,-106.4167,68.92,70,0,1.01,clear sky
486,486,Souillac,MU,2022-03-12 17:46:34,-20.5167,57.5167,79.18,94,40,8.05,scattered clouds
487,487,San Rafael,AR,2022-03-12 17:46:34,-34.6177,-68.3301,82.26,23,0,8.01,clear sky
488,488,Taoudenni,ML,2022-03-12 17:46:34,22.6783,-3.9836,82.71,8,0,9.62,clear sky
489,489,Vestmanna,FO,2022-03-12 17:46:35,62.1564,-7.1664,41.92,87,100,0.0,overcast clouds
490,490,Adeje,ES,2022-03-12 17:46:35,28.1227,-16.726,68.16,72,75,8.05,broken clouds
491,491,Iberia,US,2022-03-12 17:46:36,29.9502,-91.7507,48.18,36,0,21.85,clear sky
492,492,Walvis Bay,,2022-03-12 17:46:36,-22.9575,14.5053,72.55,73,45,16.11,scattered clouds
493,493,Malchin,DE,2022-03-12 17:46:36,53.7333,12.7833,44.98,56,0,8.43,clear sky
494,494,Puerto Madryn,AR,2022-03-12 17:46:37,-42.7692,-65.0385,62.92,60,65,27.31,broken clouds
495,495,Gouyave,GD,2022-03-12 17:46:37,12.1646,-61.7296,83.17,70,40,23.02,scattered clouds
496,496,Bouar,CF,2022-03-12 17:46:38,5.934,15.596,77.5,44,80,4.52,broken clouds
497,497,Morondava,MG,2022-03-12 17:46:38,-20.2833,44.2833,82.02,74,100,4.32,overcast clouds
498,498,Praia,CV,2022-03-12 17:46:38,14.9215,-23.5087,82.94,36,5,25.32,clear sky
499,499,Palmer,US,2022-03-12 17:46:39,42.1584,-72.3287,36.45,87,100,12.66,snow
500,500,Coyutla,MX,2022-03-12 17:46:40,20.25,-97.65,54.55,68,100,3.78,overcast clouds
501,501,Windsor,CA,2022-03-12 17:44:31,42.3001,-83.0165,23.97,47,75,21.85,broken clouds
502,502,Valparaiso,CL,2022-03-12 17:42:30,-33.0393,-71.6273,67.64,68,40,9.22,scattered clouds
503,503,Maarianhamina,AX,2022-03-12 17:46:40,60.0973,19.9348,31.86,74,0,1.14,clear sky
504,504,Saint-Leu,RE,2022-03-12 17:46:41,-21.15,55.2833,79.63,79,62,9.01,broken clouds
505,505,Maningrida,AU,2022-03-12 17:46:41,-12.0667,134.2667,79.84,85,100,7.05,overcast clouds
506,506,Killarney,IE,2022-03-12 17:45:22,52.05,-9.5167,44.65,93,75,8.05,broken clouds
507,507,Smithers,CA,2022-03-12 17:44:16,54.7804,-127.1743,34.12,80,40,2.3,scattered clouds
508,508,Borogontsy,RU,2022-03-12 17:47:42,62.6683,131.1683,-14.42,100,99,4.07,overcast clouds
509,509,Kasongo,CD,2022-03-12 17:47:42,-4.45,26.6667,70.03,97,100,3.78,light rain
510,510,Riyadh,SA,2022-03-12 17:44:59,24.6877,46.7219,75.34,26,0,15.01,clear sky
511,511,Ojinaga,MX,2022-03-12 17:47:43,29.5667,-104.4167,52.57,36,0,4.61,clear sky
512,512,Manta,EC,2022-03-12 17:46:17,-0.95,-80.7333,83.98,74,40,5.75,scattered clouds
513,513,Jinchang,CN,2022-03-12 17:47:43,38.4953,102.1739,51.49,22,68,8.68,broken clouds
514,514,Bow Island,CA,2022-03-12 17:45:22,49.8668,-111.3684,40.26,65,96,17.27,overcast clouds
515,515,Luderitz,,2022-03-12 17:44:59,-26.6481,15.1594,67.08,88,14,8.57,few clouds
516,516,Karratha,AU,2022-03-12 17:47:44,-20.7377,116.8463,86.79,55,6,9.17,clear sky
517,517,Xai-Xai,MZ,2022-03-12 17:47:44,-25.0519,33.6442,75.7,75,0,7.83,clear sky
518,518,Viransehir,TR,2022-03-12 17:47:45,37.2353,39.7631,36.68,98,100,3.56,overcast clouds
519,519,Sukumo,JP,2022-03-12 17:47:45,32.9333,132.7333,54.63,94,29,2.84,scattered clouds
520,520,Mount Isa,AU,2022-03-12 17:47:45,-20.7333,139.5,73.17,94,40,6.91,thunderstorm with heavy rain
521,521,Arica,CL,2022-03-12 17:47:07,-18.475,-70.3042,83.75,57,0,14.97,clear sky
522,522,Nantucket,US,2022-03-12 17:47:46,41.2835,-70.0995,52.14,94,100,17.27,heavy intensity rain
523,523,Whitianga,NZ,2022-03-12 17:47:46,-36.8333,175.7,64.04,87,100,8.12,overcast clouds
524,524,Vao,NC,2022-03-12 17:47:47,-22.6667,167.4833,78.98,73,46,11.72,scattered clouds
525,525,Swabi,PK,2022-03-12 17:44:26,34.1199,72.4699,65.41,47,8,4.74,clear sky
526,526,Kavaratti,IN,2022-03-12 17:47:47,10.5669,72.642,82.62,73,6,9.66,clear sky
527,527,Sao Filipe,CV,2022-03-12 17:47:48,14.8961,-24.4956,77.31,55,3,14.9,clear sky
528,528,Ketchikan,US,2022-03-12 17:47:48,55.3422,-131.6461,39.67,93,40,0.0,scattered clouds
529,529,Marsh Harbour,BS,2022-03-12 17:47:49,26.5412,-77.0636,80.28,70,0,25.66,clear sky
530,530,Fallon,US,2022-03-12 17:43:05,39.4735,-118.7774,52.92,19,0,5.75,clear sky
531,531,Portland,US,2022-03-12 17:47:18,45.5234,-122.6762,57.29,59,20,6.91,few clouds
532,532,Aklavik,CA,2022-03-12 17:47:49,68.2191,-135.0107,-5.8,71,75,17.27,broken clouds
533,533,Niquero,CU,2022-03-12 17:47:50,20.0431,-77.5828,84.96,61,0,16.37,clear sky
534,534,Mitu,CO,2022-03-12 17:47:50,1.1983,-70.1733,78.44,93,97,2.15,light rain
535,535,Camocim,BR,2022-03-12 17:47:50,-2.9022,-40.8411,81.18,77,94,3.36,overcast clouds
536,536,Pihuamo,MX,2022-03-12 17:47:51,19.2499,-103.3828,89.33,13,29,5.44,scattered clouds
537,537,Atambua,ID,2022-03-12 17:47:51,-9.1061,124.8925,74.26,89,76,2.19,broken clouds
538,538,Worland,US,2022-03-12 17:47:52,44.0169,-107.9554,31.59,73,0,6.91,clear sky
539,539,Cravinhos,BR,2022-03-12 17:47:52,-21.3403,-47.7294,81.32,55,63,0.38,broken clouds
540,540,Morgan City,US,2022-03-12 17:47:49,29.6994,-91.2068,50.0,39,0,20.71,clear sky
541,541,Livermore,US,2022-03-12 17:47:52,37.6819,-121.768,62.94,37,2,1.01,clear sky
542,542,Yei,SS,2022-03-12 17:47:53,4.095,30.6779,78.44,47,86,3.2,overcast clouds
543,543,Tete,MZ,2022-03-12 17:47:53,-16.1564,33.5867,75.29,100,75,5.99,broken clouds
544,544,Vila,PT,2022-03-12 17:47:54,42.0304,-8.1588,43.68,91,100,4.14,overcast clouds
545,545,Kabansk,RU,2022-03-12 17:47:54,52.0486,106.6528,8.06,96,100,0.47,overcast clouds
546,546,Novorzhev,RU,2022-03-12 17:47:54,57.0294,29.3338,25.54,95,69,1.41,broken clouds
547,547,Antigonish,CA,2022-03-12 17:47:55,45.6169,-61.9986,45.82,95,100,1.99,light rain
548,548,Batagay,RU,2022-03-12 17:47:55,67.6333,134.6333,-15.27,100,100,1.07,overcast clouds
549,549,Plakhtiyivka,UA,2022-03-12 17:47:56,46.1006,29.7217,28.51,70,23,5.97,few clouds
550,550,Dhuwaran,IN,2022-03-12 17:47:56,22.2333,72.8,82.72,17,0,8.12,clear sky
551,551,La Esperanza,GT,2022-03-12 17:47:56,14.8667,-91.5667,67.62,52,75,16.11,broken clouds
552,552,Aksha,RU,2022-03-12 17:47:57,50.2814,113.2867,9.28,91,33,1.79,scattered clouds
553,553,Ilawa,PL,2022-03-12 17:48:57,53.596,19.5685,33.17,46,11,3.51,few clouds
554,554,Korla,CN,2022-03-12 17:48:57,41.7597,86.1469,53.96,29,70,6.35,broken clouds
555,555,Bud,US,2022-03-12 17:48:58,39.447,-86.1758,24.75,50,20,18.14,few clouds
556,556,Nanjing,CN,2022-03-12 17:48:58,32.0617,118.7778,66.11,79,100,5.37,overcast clouds
557,557,Cabacao,PH,2022-03-12 17:48:58,13.3356,120.6588,78.69,83,85,4.54,overcast clouds
558,558,Reyes,BO,2022-03-12 17:48:59,-14.3167,-67.3833,66.72,99,100,3.96,overcast clouds
559,559,Osoyoos,CA,2022-03-12 17:45:22,49.0331,-119.4524,38.16,73,100,2.3,overcast clouds
560,560,Olinda,BR,2022-03-12 17:48:59,-8.0089,-34.8553,85.73,70,40,12.66,scattered clouds
561,561,Jambi,ID,2022-03-12 17:48:59,-1.6,103.6167,74.32,97,94,2.95,overcast clouds
562,562,Kapit,MY,2022-03-12 17:49:00,2.0167,112.9333,76.19,91,100,0.51,overcast clouds
563,563,Moussoro,TD,2022-03-12 17:49:00,13.6408,16.4901,86.0,12,6,14.47,clear sky
564,564,Hualmay,PE,2022-03-12 17:49:00,-11.0964,-77.6139,77.43,71,59,10.31,broken clouds
565,565,Centralia,US,2022-03-12 17:49:01,46.7162,-122.9543,48.07,77,0,1.01,clear sky
566,566,Virar,IN,2022-03-12 17:49:01,19.4667,72.8,84.29,58,1,4.97,clear sky
567,567,Pisticci,IT,2022-03-12 17:49:02,40.3906,16.5568,42.24,50,97,6.26,overcast clouds
568,568,Patiala,IN,2022-03-12 17:49:02,30.3267,76.4003,67.75,46,13,7.31,few clouds
569,569,Henties Bay,,2022-03-12 17:49:02,-22.116,14.2845,66.54,89,85,6.22,overcast clouds
570,570,Vredendal,ZA,2022-03-12 17:49:03,-31.6683,18.5012,71.26,80,1,8.9,clear sky
571,571,Hachinohe,JP,2022-03-12 17:49:03,40.5,141.5,31.86,78,99,3.22,overcast clouds
572,572,Umm Lajj,SA,2022-03-12 17:49:03,25.0213,37.2685,68.36,56,100,16.6,overcast clouds
573,573,Ubinskoye,RU,2022-03-12 17:49:04,55.3068,79.6802,-3.42,98,16,8.39,few clouds
574,574,Murchison,NZ,2022-03-12 17:49:04,-41.8,172.3333,58.41,89,93,0.96,overcast clouds
575,575,Nurota,UZ,2022-03-12 17:49:04,40.5614,65.6886,56.39,76,100,4.54,overcast clouds
576,576,Bairiki,KI,2022-03-12 17:49:05,1.3292,172.9752,80.6,83,20,10.36,light rain
577,577,Camacha,PT,2022-03-12 17:46:44,33.0833,-16.3333,62.02,82,40,14.97,scattered clouds
578,578,Angoram,PG,2022-03-12 17:49:05,-4.0625,144.0661,73.67,97,100,1.81,overcast clouds
579,579,Ola,RU,2022-03-12 17:49:06,59.5833,151.2833,11.37,79,98,9.64,overcast clouds
580,580,Okha,RU,2022-03-12 17:49:06,53.5739,142.9478,13.51,96,100,6.29,overcast clouds
581,581,Mattru,SL,2022-03-12 17:49:07,7.6244,-11.8332,87.48,54,85,9.78,overcast clouds
582,582,Pemangkat,ID,2022-03-12 17:49:07,1.1667,108.9667,78.66,78,99,2.46,overcast clouds
583,583,Orlandia,BR,2022-03-12 17:49:07,-20.7203,-47.8867,82.54,58,56,2.64,broken clouds
584,584,Lawton,US,2022-03-12 17:49:08,34.6087,-98.3903,52.07,24,0,20.0,clear sky
585,585,Kargalinskaya,RU,2022-03-12 17:49:08,43.7417,46.4792,30.47,76,99,6.38,overcast clouds
586,586,Nishihara,JP,2022-03-12 17:49:09,26.1842,127.7558,66.25,77,40,6.91,scattered clouds
587,587,Sabzevar,IR,2022-03-12 17:49:09,36.2126,57.6819,65.48,20,75,6.91,broken clouds
588,588,Avanigadda,IN,2022-03-12 17:49:09,16.0215,80.9181,76.32,71,7,4.59,clear sky
589,589,Ust-Tsilma,RU,2022-03-12 17:49:10,65.441,52.1498,26.17,94,95,8.23,light snow
590,590,Samarai,PG,2022-03-12 17:49:10,-10.6167,150.6667,81.84,80,99,8.1,overcast clouds
591,591,Verkhnevilyuysk,RU,2022-03-12 17:49:11,63.4453,120.3167,-23.96,100,66,2.62,broken clouds
592,592,Kongolo,CD,2022-03-12 17:49:11,-5.3833,27.0,72.12,95,100,3.51,light rain
593,593,Unguia,CO,2022-03-12 17:49:11,8.0434,-77.0945,86.02,56,82,4.47,broken clouds
594,594,Tucuman,AR,2022-03-12 17:49:12,-26.8241,-65.2226,75.2,60,75,6.91,broken clouds
595,595,Ghimes-Faget,RO,2022-03-12 17:49:12,46.5833,26.0667,15.13,92,53,1.95,broken clouds
596,596,Malanje,AO,2022-03-12 17:49:12,-9.5402,16.341,67.1,95,97,4.12,light rain
597,597,Pauini,BR,2022-03-12 17:49:13,-7.7136,-66.9764,80.22,91,93,3.11,heavy intensity rain
598,598,Lucapa,AO,2022-03-12 17:49:13,-8.4192,20.7447,64.8,97,100,2.59,overcast clouds
599,599,Savelugu,GH,2022-03-12 17:49:13,9.6244,-0.8253,98.1,24,99,5.82,overcast clouds
600,600,Paramonga,PE,2022-03-12 17:49:14,-10.6667,-77.8333,77.41,71,73,9.66,broken clouds
601,601,San Vicente,AR,2022-03-12 17:50:14,-26.6167,-54.1333,76.46,55,94,3.87,overcast clouds
602,602,Naantali,FI,2022-03-12 17:50:15,60.4674,22.0243,34.21,75,0,2.3,clear sky
603,603,Aleksandrovsk-Sakhalinskiy,RU,2022-03-12 17:50:15,50.8975,142.1561,16.41,97,99,3.2,overcast clouds
604,604,Puntarenas,CR,2022-03-12 17:50:16,9.9763,-84.8384,89.06,47,5,7.23,clear sky
605,605,Inhambane,MZ,2022-03-12 17:50:16,-23.865,35.3833,78.78,78,20,7.0,few clouds
606,606,Cam Ranh,VN,2022-03-12 17:50:17,11.9214,109.1591,78.76,69,40,9.22,scattered clouds
607,607,Chicama,PE,2022-03-12 17:50:17,-7.8447,-79.1469,70.34,54,93,10.92,overcast clouds
608,608,Ayorou,NE,2022-03-12 17:50:17,14.7308,0.9174,92.52,12,88,8.9,overcast clouds
609,609,Acapulco,MX,2022-03-12 17:48:36,16.8634,-99.8901,83.59,54,3,7.02,clear sky
610,610,Pompeu,BR,2022-03-12 17:50:18,-19.2244,-44.9353,79.95,62,100,2.15,overcast clouds
611,611,Qitaihe,CN,2022-03-12 17:50:18,45.8,130.85,27.23,92,100,7.65,light snow
612,612,Ingham,US,2022-03-12 17:50:18,42.6,-84.3833,20.16,59,100,17.27,overcast clouds
613,613,Algodones,MX,2022-03-12 17:50:19,20.3888,-105.4773,74.41,52,16,6.98,few clouds
614,614,Nan,TH,2022-03-12 17:50:19,18.8333,100.6667,80.06,59,21,0.51,few clouds
615,615,Verkh-Usugli,RU,2022-03-12 17:50:19,52.7,115.1667,1.15,97,80,1.88,broken clouds
616,616,Poya,NC,2022-03-12 17:50:20,-21.35,165.15,76.98,88,7,4.52,clear sky
617,617,Kindu,CD,2022-03-12 17:50:20,-2.95,25.95,71.31,99,92,2.04,light rain
618,618,Tautira,PF,2022-03-12 17:50:20,-17.7333,-149.15,80.29,75,59,10.56,broken clouds
619,619,Masallatah,LY,2022-03-12 17:50:21,32.6167,14.0,58.05,50,100,13.04,overcast clouds
620,620,Van,TR,2022-03-12 17:50:21,38.4924,43.3831,18.46,77,92,8.28,overcast clouds
621,621,Oranjemund,,2022-03-12 17:50:21,-28.55,16.4333,67.48,91,33,5.08,scattered clouds
622,622,Novobirilyussy,RU,2022-03-12 17:50:22,56.9514,90.6661,-14.96,100,77,1.92,broken clouds
623,623,Carballo,ES,2022-03-12 17:50:22,43.213,-8.691,53.29,74,99,7.34,overcast clouds
624,624,Pangai,TO,2022-03-12 17:50:23,-19.8,-174.35,81.79,78,33,15.93,light rain
625,625,Tsabong,BW,2022-03-12 17:50:23,-26.0217,22.401,82.92,32,5,9.26,clear sky
626,626,Dekar,BW,2022-03-12 17:50:24,-21.5333,21.9333,78.73,40,64,6.08,broken clouds
627,627,Rosa Zarate,EC,2022-03-12 17:50:24,0.3333,-79.4667,84.99,72,74,1.63,moderate rain
628,628,Labuan,MY,2022-03-12 17:50:24,5.2767,115.2417,79.16,88,20,3.44,few clouds
629,629,Agropoli,IT,2022-03-12 17:50:25,40.3469,14.9966,43.92,53,75,5.17,broken clouds
630,630,Inongo,CD,2022-03-12 17:50:25,-1.95,18.2667,70.95,93,100,4.52,overcast clouds
631,631,Mogadishu,SO,2022-03-12 17:50:26,2.0371,45.3438,78.94,76,79,18.95,broken clouds
632,632,Talcahuano,CL,2022-03-12 17:45:30,-36.7167,-73.1167,64.08,68,20,9.22,few clouds
633,633,Necochea,AR,2022-03-12 17:46:40,-38.5473,-58.7368,74.89,36,11,6.71,few clouds
634,634,Licheng,CN,2022-03-12 17:50:26,23.2955,113.8284,70.29,75,24,4.09,few clouds
635,635,Berdigestyakh,RU,2022-03-12 17:50:26,62.0989,126.6992,-18.89,100,94,1.68,overcast clouds
636,636,Vostok,RU,2022-03-12 17:50:27,46.4856,135.8833,12.51,96,100,3.83,overcast clouds
637,637,Svetlaya,RU,2022-03-12 17:50:27,46.5389,138.3297,30.58,90,73,6.89,light snow
638,638,Bukachacha,RU,2022-03-12 17:50:28,52.9833,116.9167,8.91,98,100,1.77,light snow
639,639,Dali,CN,2022-03-12 17:50:28,25.7,100.1833,53.33,41,14,5.5,few clouds
640,640,Tianpeng,CN,2022-03-12 17:50:29,30.9866,103.9393,66.67,61,84,1.45,broken clouds
641,641,Mbaiki,CF,2022-03-12 17:50:29,3.8678,17.9892,77.43,63,96,3.24,overcast clouds
642,642,Salalah,OM,2022-03-12 17:50:29,17.0151,54.0924,75.34,55,39,2.35,scattered clouds
643,643,Nara,JP,2022-03-12 17:47:29,34.6851,135.8049,56.7,62,99,0.74,overcast clouds
644,644,Marmora,IT,2022-03-12 17:51:30,44.4583,7.094,31.66,95,100,4.21,overcast clouds
645,645,Rabo De Peixe,PT,2022-03-12 17:51:30,37.8,-25.5833,60.31,59,20,10.36,few clouds
646,646,Juegang,CN,2022-03-12 17:51:31,32.3174,121.1855,63.91,79,99,13.85,light rain
647,647,Tukrah,LY,2022-03-12 17:51:31,32.5341,20.5791,52.52,66,54,10.92,broken clouds
648,648,Port Blair,IN,2022-03-12 17:51:31,11.6667,92.75,80.64,83,20,0.0,mist
649,649,West Lafayette,US,2022-03-12 17:50:20,40.4259,-86.9081,21.31,56,75,16.11,broken clouds
650,650,Khuzhir,RU,2022-03-12 17:51:32,53.1939,107.3397,6.8,87,71,5.57,broken clouds
651,651,Havre-Saint-Pierre,CA,2022-03-12 17:51:32,50.2334,-63.5986,19.76,86,100,20.71,overcast clouds
652,652,Saint-Pierre,RE,2022-03-12 17:51:32,-21.3393,55.4781,79.29,85,0,17.27,clear sky
653,653,Eyl,SO,2022-03-12 17:51:33,7.9803,49.8164,77.41,71,78,13.29,broken clouds
654,654,Churapcha,RU,2022-03-12 17:51:33,62.0025,132.4325,-11.78,100,100,3.91,overcast clouds
655,655,Laguna,US,2022-03-12 17:51:33,38.421,-121.4238,68.97,43,0,5.75,clear sky
656,656,Macedo De Cavaleiros,PT,2022-03-12 17:51:34,41.5382,-6.9611,44.51,97,100,3.27,overcast clouds
657,657,Nelson Bay,AU,2022-03-12 17:51:34,-32.7167,152.15,63.0,96,37,4.65,light rain
658,658,Nuevitas,CU,2022-03-12 17:51:34,21.5453,-77.2644,90.45,45,0,4.09,clear sky
659,659,Gazanjyk,TM,2022-03-12 17:51:35,39.2446,55.5154,53.44,55,100,11.41,overcast clouds
660,660,Kodinsk,RU,2022-03-12 17:51:35,58.6881,99.1844,-16.76,100,88,1.32,overcast clouds
661,661,Trinidad,BO,2022-03-12 17:51:35,-14.8333,-64.9,80.58,65,75,13.8,broken clouds
662,662,Pachino,IT,2022-03-12 17:51:36,36.7186,15.0907,51.58,71,100,14.2,overcast clouds
663,663,Gilbues,BR,2022-03-12 17:51:36,-9.8317,-45.3439,85.15,52,86,6.08,overcast clouds
664,664,Bure,ET,2022-03-12 17:51:36,10.7,37.0667,66.31,51,99,7.05,overcast clouds
665,665,Inta,RU,2022-03-12 17:51:37,66.0317,60.1659,20.79,88,100,16.51,overcast clouds
666,666,Dauriya,RU,2022-03-12 17:51:37,49.9333,116.8667,3.47,100,73,0.85,broken clouds
667,667,Dakar,SN,2022-03-12 17:51:37,14.6937,-17.4441,97.68,47,22,13.8,dust
